[
  {
    "id" : "delaware",
    "name" : "Delaware",
    "date" : "December 7, 1787",
    "fact" : "Jamaican reggae star Bob Marley lived in Delaware from 1965 to 1977.",
    "latitude" : 38.6920451,
    "longitude" : -75.4013315,
  },
  {
    "id" : "pennsylvania",
    "name" : "Pennsylvania",
    "date" : "December 12, 1787",
    "fact" : "Pennsylvania’s small town of Indiana is known as the Christmas Tree Capital of the World, a testament to its status as one of the top suppliers of Christmas trees in the country.  ",
    "latitude" : 40.9699889,
    "longitude" : -77.7278831,
  },
  {
    "id" : "newjersey",
    "name" : "New Jersey",
    "date" : "December 18, 1787",
    "fact" : "New Jersey has the most diners in the country. ",
    "latitude" : 40.0757384,
    "longitude" : -74.4041622,
  },
  {
    "id" : "georgia",
    "name" : "Georgia",
    "date" : "January 2, 1788",
    "fact" : "Gainesville, Georgia, often considered the poultry capital of the world, passed a 1961 law making it illegal to eat fried chicken with a fork. ",
    "latitude" : 32.3293809,
    "longitude" : -83.1137366,
  },
  {
    "id" : "connecticut",
    "name" : "Connecticut",
    "date" : "January 9, 1788",
    "fact" : "“Yankee Doodle,” the state song, is believed to have been penned in derision by the British about Connecticut volunteers in the French and Indian War. ",
    "latitude" : 41.6500201,
    "longitude" : -72.7342163,
  },
  {
    "id" : "massachusetts",
    "name" : "Massachusetts",
    "date" : "February 6, 1788",
    "fact" : "Lake Chargo-ggagoggm-anchaug-gagoggcha-ubunagun gamaugg, in the town of Webster, is the longest place-name in America.   ",
    "latitude" : 42.358604431152344,
    "longitude" : -71.06285095214844,
  },
  {
    "id" : "maryland",
    "name" : "Maryland",
    "date" : "April 28, 1788",
    "fact" : "Baltimore’s NFL franchise is the namesake of local author Edgar Allan Poe’s poem “The Raven.”",
    "latitude" : 39.5162234,
    "longitude" : -76.9382069,
  },
  {
    "id" : "southcarolina",
    "name" : "South Carolina",
    "date" : "May 23, 1788",
    "fact" : "The official state dance is called the “shag.” Quit your giggling, it’s a form of the jitterbug. ",
    "latitude" : 33.6874388,
    "longitude" : -80.4363743,
  },
  {
    "id" : "newhampshire",
    "name" : "New Hampshire",
    "date" : "June 21, 1788",
    "fact" : "The first free public library was founded in Peterborough, New Hampshire in 1833. ",
    "latitude" : 43.4849133,
    "longitude" : -71.6553992,
  },
  {
    "id" : "virginia",
    "name" : "Virginia",
    "date" : "June 25, 1788",
    "fact" : "Before colonists planted tobacco in Jamestown after a mulberry blight, silk was meant to be this colony’s cash crop. ",
    "latitude" : 37.1232245,
    "longitude" : -78.4927721,
  },
  {
    "id" : "newyork",
    "name" : "New York",
    "date" : "July 26, 1788",
    "fact" : "George Washington was declared Commander in Chief at NYC’s Federal Hall at the first United States Congress in 1789. ",
    "latitude" : 40.7127281,
    "longitude" : -74.0060152,
  },
  {
    "id" : "northcarolina",
    "name" : "North Carolina",
    "date" : "November 21, 1789",
    "fact" : "The waters off the Outer Banks became known as “The Graveyard of the Atlantic” after causing over 1,000 shipwrecks amidst its sandbars and strong currents. ",
    "latitude" : 35.6729639,
    "longitude" : -79.0392919,
  },
  {
    "id" : "rhodeisland",
    "name" : "Rhode Island",
    "date" : "May 29, 1790",
    "fact" : "Rhode Island played host to the first open golf tournament in 1865.",
    "latitude" : 41.7962409,
    "longitude" : -71.5992372,
  },
  {
    "id" : "vermont",
    "name" : "Vermont",
    "date" : "March 4, 1791",
    "fact" : "Vermont is the only state in the US to have its very own state flavor. That’s right: it’s maple.",
    "latitude" : 44.5990718,
    "longitude" : -72.5002608,
  },
  {
    "id" : "kentucky",
    "name" : "Kentucky",
    "date" : "June 1, 1792",
    "fact" : "Although Kentucky is the home of bourbon, about a fifth of the state’s 120 counties are completely dry, meaning no liquor sales allowed. ",
    "latitude" : 37.5726028,
    "longitude" : -85.1551411,
  },
  {
    "id" : "tennessee",
    "name" : "Tennessee",
    "date" : "June 1, 1796",
    "fact" : "Nashville’s Grand Ole Opry hosts the longest continuously running live radio program in the world, broadcast every weekend since 1925. ",
    "latitude" : 35.7730076,
    "longitude" : -86.2820081,
  },
  {
    "id" : "ohio",
    "name" : "Ohio",
    "date" : "March 1, 1803",
    "fact" : "Ohio’s state flag is the only burgee-shaped one in the country (it’s like a pennant with a triangle missing at the end). ",
    "latitude" : 40.2253569,
    "longitude" : -82.6881395,
  },
  {
    "id" : "louisiana",
    "name" : "Louisiana",
    "date" : "April 30, 1812",
    "fact" : "Thanks to its French heritage, Louisiana is the only state in the country to adhere to a civil law system, as opposed to the common law used in the other 49 states.",
    "latitude" : 30.8703881,
    "longitude" : -92.007126,
  },
  {
    "id" : "indiana",
    "name" : "Indiana",
    "date" : "December 11, 1816",
    "fact" : "Indiana, the “Crossroads of America,” has more miles of interstate per sq mile than any other US state. ",
    "latitude" : 40.3270127,
    "longitude" : -86.1746933,
  },
  {
    "id" : "mississippi",
    "name" : "Mississippi",
    "date" : "December 10, 1817",
    "fact" : "The name of the state comes from the Ojibwe words Misi zipi, or “Great River.”",
    "latitude" : 32.9715645,
    "longitude" : -89.7348497,
  },
  {
    "id" : "illinois",
    "name" : "Illinois",
    "date" : "December 3, 1818",
    "fact" : "Willis Tower (formerly Sears Tower) was the tallest building in the Americas until One World Trade Center in New York City eclipsed it, but the Willis Tower roof stands 100ft higher than that of One WTC, which took the title based on its lofty spire. ",
    "latitude" : 40.0796606,
    "longitude" : -89.4337288,
  },
  {
    "id" : "alabama",
    "name" : "Alabama",
    "date" : "December 14, 1819",
    "fact" : "While Mardi Gras is most associated with New Orleans, the Alabama city of Mobile is where the tradition originated in the US.",
    "latitude" : 33.2588817,
    "longitude" : -86.8295337,
  },
  {
    "id" : "maine",
    "name" : "Maine",
    "date" : "March 15, 1820",
    "fact" : "Maine has almost 60 active lighthouses along its coast.",
    "latitude" : 45.709097,
    "longitude" : -68.8590201,
  },
  {
    "id" : "missouri",
    "name" : "Missouri",
    "date" : "August 10, 1821",
    "fact" : "Missouri was named after a tribe of Sioux Indians called the Missouria, or Missouri. The name means “he of the big canoe”.",
    "latitude" : 38.7604815,
    "longitude" : -92.5617875,
  },
  {
    "id" : "arkansas",
    "name" : "Arkansas",
    "date" : "June 15, 1836",
    "fact" : "Home to America's only operational diamond mine – Crater Diamonds State Park. ",
    "latitude" : 35.2048883,
    "longitude" : -92.4479108,
  },
  {
    "id" : "michigan",
    "name" : "Michigan",
    "date" : "January 26, 1837",
    "fact" : "Mackinac Bridge crosses 5 miles over the Straits of Mackinac; its exposed span means that the bridge sometimes closes due to extreme weather.",
    "latitude" : 43.6211955,
    "longitude" : -84.6824346,
  },
  {
    "id" : "florida",
    "name" : "Florida",
    "date" : "March 3, 1845",
    "fact" : "South Florida is the only place in the world where both crocodiles and alligators can be found in the wild. ",
    "latitude" : 27.7567667,
    "longitude" : -81.4639835,
  },
  {
    "id" : "texas",
    "name" : "Texas",
    "date" : "December 29, 1845",
    "fact" : "The official state dessert is pecan pie, surely because the state is so rich in pecan trees (it’s third in the nation for its pecan harvest). Ooey, gooey and delicious, Lady Bird Johnson brought a recipe for this favorite Texas treat along to the White House when she became first lady. ",
    "latitude" : 31.8160381,
    "longitude" : -99.5120986,
  },
  {
    "id" : "iowa",
    "name" : "Iowa",
    "date" : "December 28, 1846",
    "fact" : "The Iowa State Fair began in 1854 and has been held every year on the Iowa State Fairground since 1856. One of the largest and most well-known state fairs in America takes place over 11 days in August, encompassing more than 450 acres filled with campsites, live music stages and over 200 vendors selling food. ",
    "latitude" : 41.9216734,
    "longitude" : -93.3122705,
  },
  {
    "id" : "wisconsin",
    "name" : "Wisconsin",
    "date" : "May 29, 1848",
    "fact" : "The Green Bay Packers are owned by the people of Green Bay (pop. just over 100,000). The football team is a nonprofit whose fans support it, and the team supports them with a bolstered economy, plenty of charitable giving and even a Lombardi Trophy from time to time. ",
    "latitude" : 44.4308975,
    "longitude" : -89.6884637,
  },
  {
    "id" : "california",
    "name" : "California",
    "date" : "September 9, 1850",
    "fact" : "California's Sequoia National Park is home to the world's biggest tree by volume, a sequoia named General Sherman. ",
    "latitude" : 36.7014631,
    "longitude" : -118.755997,
  },
  {
    "id" : "minnesota",
    "name" : "Minnesota",
    "date" : "May 11, 1858",
    "fact" : "Bloomington’s Mall of America is 4.87 million square feet and could fit seven Yankee Stadiums inside it. Surprisingly, it’s only the fifth largest shopping mall in the country by retail space.",
    "latitude" : 45.9896587,
    "longitude" : -94.6113288,
  },
  {
    "id" : "oregon",
    "name" : "Oregon",
    "date" : "February 14, 1859",
    "fact" : "Oregon is home to the world’s largest living organism, a fungal colony in the state’s Blue Mountains.",
    "latitude" : 43.9792797,
    "longitude" : -120.737257,
  },
  {
    "id" : "kansas",
    "name" : "Kansas",
    "date" : "January 29, 1861",
    "fact" : "It was once illegal to put a scoop of ice cream on cherry pie. ",
    "latitude" : 38.27312,
    "longitude" : -98.5821872,
  },
  {
    "id" : "westvirginia",
    "name" : "West Virginia",
    "date" : "June 20, 1863",
    "fact" : "On the third Saturday in October, hundreds of BASE jumpers parachute from the 876 foot-high New River Gorge Bridge, which is closed to vehicles for the event. Pedestrians can stroll the bridge, watch the action and shop at the many vendors. ",
    "latitude" : 38.339111328125,
    "longitude" : -81.61408996582031,
  },
  {
    "id" : "nevada",
    "name" : "Nevada",
    "date" : "October 31, 1864",
    "fact" : "Averaging about 10 inches of rain a year, Nevada is the driest state in the US. ",
    "latitude" : 39.5158825,
    "longitude" : -116.8537227,
  },
  {
    "id" : "Nebraska",
    "name" : "Nebraska",
    "date" : "March 1, 1867",
    "fact" : "Kool-Aid was invented in the town of Hastings in 1927. ",
    "latitude" : 41.7370229,
    "longitude" : -99.5873816,
  },
  {
    "id" : "Colorado",
    "name" : "Colorado",
    "date" : "August 1, 1876",
    "fact" : "The 13th step leading to the entrance of the Colorado State Capitol in Denver is exactly 1 mile above sea level.",
    "latitude" : 38.7251776,
    "longitude" : -105.607716,
  },
  {
    "id" : "northdakota",
    "name" : "North Dakota",
    "date" : "November 2, 1889",
    "fact" : "North Dakota is the No. 1 producer of honey in the country.",
    "latitude" : 47.6201461,
    "longitude" : -100.540737,
  },
  {
    "id" : "southdakota",
    "name" : "South Dakota",
    "date" : "November 2, 1889",
    "fact" : "South Dakota has more lines of shoreline than Florida. ",
    "latitude" : 44.6471761,
    "longitude" : -100.348761,
  },
  {
    "id" : "montana",
    "name" : "Montana",
    "date" : "November 8, 1889",
    "fact" : "The only state in the US with a Triple Divide, which allows waters to flow to Hudson Bay, the Atlantic Ocean, and the Pacific Ocean.",
    "latitude" : 47.3752671,
    "longitude" : -109.638757,
  },
  {
    "id" : "washington",
    "name" : "Washington",
    "date" : "November 11, 1889",
    "fact" : "Pub trivia in Seattle might host a picture round of salmon; Washingtonians are expected to know their spawning chinook from non-spawning coho. ",
    "latitude" : 38.8950368,
    "longitude" : -77.0365427,
  },
  {
    "id" : "idaho",
    "name" : "Idaho",
    "date" : "July 3, 1890",
    "fact" : "Yes, there is an Idaho Potato Museum. Yes, Idaho potatoes are an exceptionally delicious and abundant crop. You’ve probably had one; 13 billion pounds are harvested yearly. ",
    "latitude" : 43.61656188964844,
    "longitude" : -116.20085144042969,
  },
  {
    "id" : "wyoming",
    "name" : "Wyoming",
    "date" : "July 10, 1890",
    "fact" : "Devil's Tower was the first national monument in the US in 1906.",
    "latitude" : 43.1700264,
    "longitude" : -107.568534,
  },
  {
    "id" : "utah",
    "name" : "Utah",
    "date" : "January 4, 1896",
    "fact" : "Pando, a grove of quaking aspens in Utah’s Fishlake National Forest, is one of the world’s largest and oldest living organisms, linked through a shared root system. ",
    "latitude" : 39.4225192,
    "longitude" : -111.714358,
  },
  {
    "id" : "oklahoma",
    "name" : "Oklahoma",
    "date" : "November 16, 1907",
    "fact" : "The official state poem is “Howdy Folks,” an ode to Oklahoma cowboy Will Rogers by David Randolph Milsten. ",
    "latitude" : 34.9550817,
    "longitude" : -97.2684063,
  },
  {
    "id" : "newmexico",
    "name" : "New Mexico",
    "date" : "January 6, 1912",
    "fact" : "New Mexico has an official state question: “Red or green?” This refers to which variety of chile sauce you’d like on your food. Answer “Christmas,” and you’ll get both.",
    "latitude" : 34.5708167,
    "longitude" : -105.993007,
  },
  {
    "id" : "arizona",
    "name" : "Arizona",
    "date" : "February 14, 1912",
    "fact" : "Don’t get too close (ouch!) or scratch initials in saguaro cactus; fines for cactus graffiti run up to $5,000.",
    "latitude" : 34.395342,
    "longitude" : -111.763275,
  },
  {
    "id" : "alaska",
    "name" : "Alaska",
    "date" : "January 3, 1959",
    "fact" : "Not only is Alaska the largest state in the country (more than twice as large as Texas), Wrangell–St Elias National Park & Preserve covers a larger area than nine US states.",
    "latitude" : 64.4459613,
    "longitude" : -149.680909,
  },
  {
    "id" : "hawaii",
    "name" : "Hawaii",
    "date" : "August 21, 1959",
    "fact" : "Hawaii has the most isolated large population center on Earth, almost 2,400 miles from California and about 4,000 miles from Japan. ",
    "latitude" : 19.5872677,
    "longitude" : -155.4268897,
  },
]
